[
  {
    "name":"Poplar",
    "address":"168 East India Dock Road, London, Greater London E14 0BP, UK",
    "latitude":51.5108798,
    "longitude":-0.0157058
  },
  {
    "name":"East Ham",
    "address":"210 High Street South, London, Greater London E6, UK",
    "latitude":51.5242269,
    "longitude":0.057323
  },
  {
    "name":"Plaistow",
    "address":"145 Prince Regent Lane, London, Greater London E13 8RY, UK",
    "latitude":51.5206827,
    "longitude":0.0318764
  },
  {
    "name":"Barking",
    "address":"Alfred's Way, Greater London, UK",
    "latitude":51.5321042,
    "longitude":0.1032876
  },
  {
    "name":"Millwall",
    "address":"43 Westferry Road, London, Greater London E14, UK",
    "latitude":51.4980577,
    "longitude":-0.0259217
  },
  {
    "name":"East Greenwich",
    "address":"325 Woolwich Road, London, Greater London SE7, UK",
    "latitude":51.48735019999999,
    "longitude":0.0266793
  },
  {
    "name":"Plumstead",
    "address":"1 Lakedale Road, London, Greater London SE18 1PP, UK",
    "latitude":51.4871665,
    "longitude":0.0908779
  },
  {
    "name":"Woolwich",
    "address":"24 Sunbury Street, London, Greater London SE18, UK",
    "latitude":51.4921149,
    "longitude":0.0576511
  }
]
